시설종류,대상시설명,소재지도로명주소,소재지지번주소,위도,경도,관리기관명,관할경찰서명,CCTV설치여부,CCTV설치대수,보호구역도로폭,데이터기준일자
초등학교,관악초등학교,서울특별시 관악구 청룡4길 49,,37.48102412,126.942556,서울특별시 관악구청,서울관악경찰서,Y,4,6~20,21-03-10
초등학교,구암초등학교,서울특별시 관악구 봉천동 구암길 1 구암초등학교,서울특별시 관악구 봉천동 482-1,37.48921747,126.9462717,서울특별시 관악구청,서울관악경찰서,Y,3,6~15,21-03-10
초등학교,난곡초등학교,서울특별시 관악구 신림동 난곡로35길 102 정보센타동,서울특별시 관악구 신림동 711-136,37.4691282,126.9163416,서울특별시 관악구청,서울관악경찰서,Y,6,4~8,21-03-10
초등학교,난우초등학교,서울특별시 관악구 신림동 난우길 40 난우초등학교,서울특별시 관악구 신림동 589-1,37.47711829,126.9176525,서울특별시 관악구청,서울관악경찰서,Y,7,5~12,21-03-10
초등학교,난향초등학교,-,서울특별시 관악구 신림동 672-1,37.46282027,126.9183355,서울특별시 관악구청,서울관악경찰서,Y,5,6~20,21-03-10
초등학교,남부초등학교,서울특별시 관악구 남부순환로 163길 14,,37.48512106,126.9221169,서울특별시 관악구청,서울관악경찰서,Y,6,6~12,21-03-10
초등학교,당곡초등학교,서울특별시 관악구 보라매로2길 23,,37.4901682,126.9303685,서울특별시 관악구청,서울관악경찰서,Y,7,6~12,21-03-10
초등학교,미성초등학교,서울특별시 관악구 문성로 79,,37.47833862,126.9123944,서울특별시 관악구청,서울관악경찰서,Y,4,6~20,21-03-10
초등학교,사당초등학교,서울특별시 관악구 남현동 남현4길 51 사당초등학교,서울특별시 관악구 남현동 1080-1,37.47383781,126.9733518,서울특별시 관악구청,서울관악경찰서,Y,8,4~8,21-03-10
초등학교,신우초등학교,서울특별시 관악구 호암로 498,,37.46326532,126.9325366,서울특별시 관악구청,서울관악경찰서,Y,1,6~20,21-03-10
초등학교,원당초등학교,서울특별시 관악구 봉천로 505,,37.48121389,126.9562493,서울특별시 관악구청,서울관악경찰서,Y,4,6~25,21-03-10
초등학교,인헌초등학교,서울특별시 관악구 낙성대로 23,,37.47675328,126.9598656,서울특별시 관악구청,서울관악경찰서,Y,3,6~30,21-03-10
초등학교,청룡초등학교,서울특별시 관악구 관악로5길 61,,37.47672482,126.9512177,서울특별시 관악구청,서울관악경찰서,Y,3,5~8,21-03-10
초등학교,삼성초등학교,서울특별시 관악구 대학7길 52,,37.46852069,126.9404946,서울특별시 관악구청,서울관악경찰서,Y,2,6~8,21-03-10
초등학교,신림초등학교,서울특별시 관악구 문성로28길 31,,37.4771503,126.9268759,서울특별시 관악구청,서울관악경찰서,Y,7,6~20,21-03-10
초등학교,신봉초등학교,서울특별시 관악구 봉천동 양녕로6나길 1 신봉초등학교,서울특별시 관악구 봉천동 458,37.48557635,126.9493909,서울특별시 관악구청,서울관악경찰서,Y,10,5~8,21-03-10
초등학교,은천초등학교,서울특별시 관악구 봉천동 은천로 69 은천초등학교,서울특별시 관악구 봉천동 622-1,37.4865852,126.9426783,서울특별시 관악구청,서울관악경찰서,Y,5,6~20,21-03-10
초등학교,봉천초등학교,서울특별시 관악구 봉천동 행운1라길 17 봉천초등학교,서울특별시 관악구 봉천동 28-6,37.4832696,126.9581884,서울특별시 관악구청,서울관악경찰서,Y,5,6~12,21-03-10
초등학교,신성초등학교,서울특별시 관악구 신림로 114,,37.47200385,126.9367522,서울특별시 관악구청,서울관악경찰서,Y,3,6~15,21-03-10
초등학교,봉현초등학교,서울특별시 관악구 성현로 117,,37.49123996,126.9555881,서울특별시 관악구청,서울관악경찰서,Y,4,6~20,21-03-10
초등학교,원신초등학교,서울특별시 관악구 신림동 광신길 177 원신초등학교,서울특별시 관악구 신림동 336,37.46719824,126.9272409,서울특별시 관악구청,서울관악경찰서,Y,3,4~12,21-03-10
초등학교,조원초등학교,서울특별시 관악구 신림동 조원로 67 조원초등학교,서울특별시 관악구 신림동 548-2,37.48412777,126.9095137,서울특별시 관악구청,서울관악경찰서,Y,4,6~20,21-03-10
유치원,건영유치원,서울특별시 관악구 조원로 114,,37.484844,126.914908,서울특별시 관악구청,서울관악경찰서,Y,3,6~12,21-03-10
유치원,동원유치원,서울특별시 관악구 행운1길 96,,37.48282858,126.9566712,서울특별시 관악구청,서울관악경찰서,Y,1,8,21-03-10
유치원,배꽃유치원,서울특별시 관악구 봉천동 봉천로29길 47 배꽃유치원,서울특별시 관악구 봉천동 935-2,37.48560816,126.941936,서울특별시 관악구청,서울관악경찰서,Y,1,6,21-03-10
유치원,소슬유치원,서울특별시 관악구 봉천동 구암길 46 소슬유치원,서울특별시 관악구 봉천동 1712-7,37.489766,126.9484065,서울특별시 관악구청,서울관악경찰서,Y,1,12,21-03-10
유치원,예닮유치원,서울특별시 관악구 신림동 남부순환로172길 59-9,서울특별시 관악구 신림동 441-124,37.48223803,126.922468,서울특별시 관악구청,서울관악경찰서,Y,2,6,21-03-10
유치원,은아유치원,서울특별시 관악구 봉천동 남부순환로246길 25 은아유치원 A동,서울특별시 관악구 봉천동 1635-1,37.47545008,126.9644352,서울특별시 관악구청,서울관악경찰서,Y,2,6,21-03-10
유치원,현대유치원,서울특별시 관악구 봉천동 관악로40길 55,서울특별시 관악구 봉천동 1000,37.49271686,126.9582187,서울특별시 관악구청,서울관악경찰서,Y,1,12,21-03-10
유치원,명성유치원,서울특별시 관악구 문성로 234,,37.47879878,126.929357,서울특별시 관악구청,서울관악경찰서,Y,1,8,21-03-10
유치원,새소슬유치원,서울특별시 관악구 구암길 46,,37.489742,126.9484065,서울특별시 관악구청,서울관악경찰서,Y,1,12,21-03-10
유치원,새싹유치원,서울특별시 관악구 남현동 남현2길 90,서울특별시 관악구 남현동 1071-25,37.4745654,126.972834,서울특별시 관악구청,서울관악경찰서,Y,1,6,21-03-10
유치원,신림유치원,서울특별시 관악구 난곡로 32길 12,,37.472093,126.9202382,서울특별시 관악구청,서울관악경찰서,Y,2,4~6,21-03-10
유치원,애동유치원,서울특별시 관악구 신림동 법원단지길 56,서울특별시 관악구 신림동 612-32,37.47381393,126.920254,서울특별시 관악구청,서울관악경찰서,Y,2,8,21-03-10
유치원,종인유치원,서울특별시 관악구 봉천동 솔밭로 20,서울특별시 관악구 봉천동 1690-17,37.4790524,126.963441,서울특별시 관악구청,서울관악경찰서,Y,1,6,21-03-10
유치원,하늘유치원,서울특별시 관악구 양산길 18,,37.47405927,126.9322556,서울특별시 관악구청,서울관악경찰서,Y,2,6~8,21-03-10
유치원,한별유치원,서울특별시 관악구 남부순환로144길 65,,37.47841871,126.9134662,서울특별시 관악구청,서울관악경찰서,Y,1,6,21-03-10
유치원,큰솔유치원,서울특별시 관악구 봉천동 관악로30길 12 봉천 우성아파트 큰솔유치원,서울특별시 관악구 봉천동 1706,37.48409831,126.9606845,서울특별시 관악구청,서울관악경찰서,Y,1,20,21-03-10
유치원,은비유치원,서울특별시 관악구 청림5길 22,,37.489072,126.9601123,서울특별시 관악구청,서울관악경찰서,Y,1,12,21-03-10
유치원,꿈나라유치원,서울특별시 관악구 신림동 난곡로 42 꿈나라유치원,서울특별시 관악구 신림동 1735-9,37.4605336,126.9206196,서울특별시 관악구청,서울관악경찰서,Y,1,20,21-03-10
유치원,신우단설유치원,서울특별시 관악구 신림동 호암로 498 신우초등학교,서울특별시 관악구 신림동 315,37.46326397,126.9325353,서울특별시 관악구청,서울관악경찰서,Y,1,6~20,21-03-10
유치원,관악병설유치원,서울특별시 관악구 청룡4길 49,,37.48102412,126.942556,서울특별시 관악구청,서울관악경찰서,Y,1,6~20,21-03-10
유치원,난곡병설유치원,서울특별시 관악구 난곡로35길 102,,37.46912956,126.9163436,서울특별시 관악구청,서울관악경찰서,Y,1,4~8,21-03-10
유치원,봉천병설유치원,서울특별시 관악구 봉천동 행운1라길 17 봉천초등학교,서울특별시 관악구 봉천동 28-6,37.4832696,126.9581884,서울특별시 관악구청,서울관악경찰서,Y,1,6~12,21-03-10
유치원,삼성병설유치원,서울특별시 관악구 대학7길 52,,37.46852069,126.9404946,서울특별시 관악구청,서울관악경찰서,Y,1,6~8,21-03-10
유치원,신성병설유치원,서울특별시 관악구 신림동 신림로 114 신성초등학교,서울특별시 관악구 신림동 117-4,37.47200385,126.9367522,서울특별시 관악구청,서울관악경찰서,Y,1,6~20,21-03-10
유치원,원당병설유치원,서울특별시 관악구 봉천동 봉천로 505 원당초등학교,서울특별시 관악구 봉천동 1669-1,37.48128046,126.9562493,서울특별시 관악구청,서울관악경찰서,Y,1,6~25,21-03-10
유치원,은천병설유치원,서울특별시 관악구 은천로 69,,37.4865852,126.9426783,서울특별시 관악구청,서울관악경찰서,Y,1,6~20,21-03-10
유치원,청룡병설유치원,서울특별시 관악구 관악로5길 61,,37.47672482,126.9512177,서울특별시 관악구청,서울관악경찰서,Y,1,5~8,21-03-10
특수학교,새롬학교,서울특별시 관악구 보라매로 44,,37.493126,126.927367,서울특별시 관악구청,서울관악경찰서,Y,2,20,21-03-10
특수학교,서울정문학교,서울특별시 관악구 난향3길 31,,37.461733,126.9169532,서울특별시 관악구청,서울관악경찰서,Y,1,6,21-03-10
어린이집,구립선봉어린이집,서울특별시 관악구 봉천로27길 20,,37.485148,126.939675,서울특별시 관악구청,서울관악경찰서,Y,1,6,21-03-10
어린이집,구립다원어린이집,서울특별시 관악구 미성길 123,,37.47196653,126.9121893,서울특별시 관악구청,서울관악경찰서,Y,2,6,21-03-10
어린이집,구립도담어린이집,서울특별시 관악구 봉천동 청림3길 37 도담어린이집,서울특별시 관악구 봉천동 1-85,37.4897327,126.958378,서울특별시 관악구청,서울관악경찰서,Y,3,6,21-03-10
어린이집,구립새빛어린이집,서울특별시 관악구 신림동 신사로10길 29,서울특별시 관악구 신림동 501-30,37.4863192,126.9151491,서울특별시 관악구청,서울관악경찰서,Y,2,6,21-03-10
어린이집,노아어린이집,서울특별시 관악구 신림동 남부순환로145길 6 나동,서울특별시 관악구 신림동 538-16,37.4818537,126.9123722,서울특별시 관악구청,서울관악경찰서,Y,2,6,21-03-10
어린이집,구립문성어린이집,서울특별시 관악구 신림동 시흥대로164길 27 구립문성어린이집,서울특별시 관악구 신림동 1661-15,37.48201452,126.9028929,서울특별시 관악구청,서울관악경찰서,Y,2,6,21-03-10
어린이집,구립미림어린이집,서울특별시 관악구 신림동 태흥길 4 구립미림어린이집,서울특별시 관악구 신림동 300-7,37.46639992,126.9309422,서울특별시 관악구청,서울관악경찰서,Y,2,6,21-03-10
어린이집,구립합실어린이집,서울특별시 관악구 광신길 113,,37.464018,126.925415,서울특별시 관악구청,서울관악경찰서,Y,1,20,21-03-10
어린이집,구립서원어린이집,서울특별시 관악구 서원3길 25,,37.47692559,126.9342292,서울특별시 관악구청,서울관악경찰서,Y,1,6,21-03-10
어린이집,예대어린이집,서울특별시 관악구 양녕로2가길 41,,37.48529905,126.947208,서울특별시 관악구청,서울관악경찰서,Y,1,6,21-03-10
어린이집,미라클어린이집,서울특별시 관악구 법원단지2길 15-4,,37.473654,126.919802,서울특별시 관악구청,서울관악경찰서,Y,1,4~6,21-03-10
유치원,예일유치원,서울특별시 관악구 낙성대역14길 6,,37.4739111,126.964244,서울특별시 관악구청,서울관악경찰서,Y,1,6,21-03-10
유치원,영그린유치원,서울특별시 관악구 신림동 참숯5길 12 영어린이집,서울특별시 관악구 신림동 95-53,37.47706582,126.9403929,서울특별시 관악구청,서울관악경찰서,Y,1,6,21-03-10
어린이집,아뜰어린이집,서울특별시 관악구 봉천로23다길 23,서울특별시 관악구 봉천동 965-1,37.48750132,126.9369662,서울특별시 관악구청,서울관악경찰서,Y,1,6,21-03-10
어린이집,초롱별어린이집,서울특별시 관악구 난곡로45길 5,서울특별시 관악구 신림동 763-68,37.4762101,126.9153179,서울특별시 관악구청,서울관악경찰서,Y,3,6,21-03-10
유치원,돌샘유치원,서울특별시 강남구 개포로 516,,37.48914032,127.0708698,서울특별시 강남구청,수서경찰서,Y,1,12.6,21-06-28
유치원,신양유치원,서울특별시 강남구 선릉로10길 18-6,,37.483431,127.061678,서울특별시 강남구청,수서경찰서,Y,2,6,21-06-28
유치원,이화유치원,서울특별시 강남구 개포로109길 9,,37.495751,127.075096,서울특별시 강남구청,수서경찰서,Y,2,15,21-06-28
유치원,영동제일유치원,서울특별시 강남구 삼성로120길 28,,37.517579,127.053437,서울특별시 강남구청,강남경찰서,Y,2,5.8,21-06-28
유치원,소망유치원,서울특별시 강남구 광평로56길 11,,37.48797908,127.1056314,서울특별시 강남구청,수서경찰서,Y,1,11,21-06-28
유치원,묘동유치원,서울특별시 강남구 도곡로78길 8,,37.49740739,127.058723,서울특별시 강남구청,수서경찰서,Y,5,5.5,21-06-28
유치원,푸른유치원,서울특별시 강남구 일원로14길 25,,37.48479809,127.0811005,서울특별시 강남구청,수서경찰서,Y,1,15.2,21-06-28
유치원,성요셉유치원,서울특별시 강남구 도산대로83길 27,,37.52627314,127.0482112,서울특별시 강남구청,강남경찰서,Y,2,5.9,21-06-28
유치원,강남유치원,서울특별시 강남구 선릉로129길 31,,37.515448,127.039009,서울특별시 강남구청,강남경찰서,Y,2,8.6,21-06-28
유치원,반디유치원,서울특별시 강남구 광평로47길 17,,37.48790982,127.0981867,서울특별시 강남구청,수서경찰서,Y,2,9.6,21-06-28
유치원,초원유치원,서울특별시 강남구 논현로14길 17,,37.475915,127.048578,서울특별시 강남구청,수서경찰서,Y,2,9.4,21-06-28
유치원,성결유치원,서울특별시 강남구 언주로121길 5,,37.511421,127.035354,서울특별시 강남구청,강남경찰서,Y,4,6,21-06-28
유치원,도곡렉슬유치원,서울특별시 강남구 선릉로 217,,37.49432124,127.0535103,서울특별시 강남구청,수서경찰서,Y,2,25,21-06-28
유치원,역삼초등학교병설유치원,서울특별시 강남구 강남대로66길 21,,37.49316115,127.032603,서울특별시 강남구청,수서경찰서,Y,1,11.8,21-06-28
유치원,개포초등학교유치원,서울특별시 강남구 영동대로3길 45,,37.48680544,127.0699766,서울특별시 강남구청,수서경찰서,Y,1,15,21-06-28
유치원,대현초등학교병설유치원,서울특별시 강남구 역삼로98길 16,,37.50372276,127.063564,서울특별시 강남구청,수서경찰서,Y,1,5.5,21-06-28
유치원,수서초등학교병설유치원,서울특별시 강남구 광평로51길 46,,37.49115058,127.101549,서울특별시 강남구청,수서경찰서,Y,1,6.5,21-06-28
유치원,유정유치원,서울특별시 강남구 광평로34길 17,,37.48300739,127.0949421,서울특별시 강남구청,수서경찰서,Y,46,20,21-06-28
유치원,아란유치원,서울특별시 강남구 압구정로 201,,37.53153399,127.0292754,서울특별시 강남구청,강남경찰서,Y,1,6,21-06-28
유치원,은곡유치원,서울특별시 강남구 헌릉로569길 41,,37.46682003,127.096934,서울특별시 강남구청,수서경찰서,Y,1,20,21-06-28
유치원,청담몬테소리유치원,서울특별시 강남구 학동로67길 15,,37.519322,127.046511,서울특별시 강남구청,강남경찰서,Y,1,6,21-06-28
초등학교,대곡초등학교,서울특별시 강남구 남부순환로 3022,,37.49471191,127.0650265,서울특별시 강남구청,수서경찰서,Y,2,40,21-06-28
초등학교,대왕초등학교,서울특별시 강남구 헌릉로 618길 8,,37.46462136,127.1055895,서울특별시 강남구청,수서경찰서,Y,2,6.1,21-06-28
초등학교,대현초등학교,서울특별시 강남구 역삼로98길 16,,37.50372276,127.063564,서울특별시 강남구청,수서경찰서,Y,4,5.5,21-06-28
초등학교,도곡초등학교,서울특별시 강남구 선릉로64길 33,,37.4995106,127.0544636,서울특별시 강남구청,수서경찰서,Y,5,5.3,21-06-28
초등학교,도성초등학교,서울특별시 강남구 역삼로 313,,37.50146282,127.0488738,서울특별시 강남구청,수서경찰서,Y,2,23.1,21-06-28
초등학교,봉은초등학교,서울특별시 강남구 학동로 610,,37.52008278,127.060981,서울특별시 강남구청,강남경찰서,Y,3,6,21-06-28
초등학교,삼릉초등학교,서울특별시 강남구 봉은사로63길 22,,37.51325956,127.046914,서울특별시 강남구청,강남경찰서,Y,4,5.4,21-06-28
초등학교,청담초등학교,서울특별시 강남구 압구정로71길 9,,37.52828178,127.0451534,서울특별시 강남구청,강남경찰서,Y,6,5.9,21-06-28
초등학교,포이초등학교,서울특별시 강남구 개포로22길 87,,37.47591562,127.0525106,서울특별시 강남구청,수서경찰서,Y,3,14.5,21-06-28
초등학교,논현초등학교,서울특별시 강남구 강남대로120길 33,,37.50849066,127.0262217,서울특별시 강남구청,강남경찰서,Y,8,6,21-06-28
초등학교,신구초등학교,서울특별시 강남구 압구정로18길 28,,37.5233613,127.0239915,서울특별시 강남구청,강남경찰서,Y,8,5.5,21-06-28
초등학교,언북초등학교,서울특별시 강남구 삼성로135길 42,,37.52012607,127.0447141,서울특별시 강남구청,강남경찰서,Y,8,6,21-06-28
초등학교,영희초등학교,서울특별시 강남구 일원로 21,,37.49230166,127.0811312,서울특별시 강남구청,수서경찰서,Y,6,9.8,21-06-28
초등학교,일원초등학교,서울특별시 강남구 영동대로4길 20,,37.48978925,127.0763251,서울특별시 강남구청,수서경찰서,Y,3,7.6,21-06-28
초등학교,학동초등학교,서울특별시 강남구 선릉로115길 42,,37.51226034,127.0395969,서울특별시 강남구청,강남경찰서,Y,7,5.7,21-06-28
초등학교,개원초등학교,서울특별시 강남구 선릉로 29,,37.48161815,127.0587379,서울특별시 강남구청,수서경찰서,Y,2,12,21-06-28
초등학교,개일초등학교,서울특별시 강남구 개포로 401,,37.48621378,127.057776,서울특별시 강남구청,수서경찰서,Y,2,20,21-06-28
초등학교,구룡초등학교,서울특별시 강남구 개포로 263,,37.48119613,127.051773,서울특별시 강남구청,수서경찰서,Y,3,14,21-06-28
초등학교,대도초등학교,서울특별시 강남구 선릉로 209,,37.49264543,127.0533776,서울특별시 강남구청,수서경찰서,Y,2,28.7,21-06-28
초등학교,대모초등학교,서울특별시 강남구 광평로20길 27,,37.48059953,127.0859937,서울특별시 강남구청,수서경찰서,Y,2,14.5,21-06-28
초등학교,대진초등학교,서울특별시 강남구 개포로109길 74,,37.497027,127.0780785,서울특별시 강남구청,수서경찰서,Y,3,9,21-06-28
초등학교,수서초등학교,서울특별시 강남구 광평로51길 46,,37.49115058,127.101549,서울특별시 강남구청,수서경찰서,Y,5,6.5,21-06-28
초등학교,압구정초등학교,서울특별시 강남구 압구정로39길 29,,37.53173902,127.0308413,서울특별시 강남구청,강남경찰서,Y,2,8.9,21-06-28
초등학교,언주초등학교,서울특별시 강남구 남부순환로363길 19,,37.48632308,127.036781,서울특별시 강남구청,수서경찰서,Y,5,7.7,21-06-28
초등학교,역삼초등학교,서울특별시 강남구 강남대로66길 21,,37.49316115,127.032603,서울특별시 강남구청,수서경찰서,Y,7,6.9,21-06-28
초등학교,왕북초등학교,서울특별시 강남구 광평로31길 74,,37.4863299,127.086039,서울특별시 강남구청,수서경찰서,Y,3,9,21-06-28
초등학교,대청초등학교,서울특별시 강남구 양재대로55길 28,,37.493117,127.0877676,서울특별시 강남구청,수서경찰서,Y,4,14.7,21-06-28
초등학교,대치초등학교,서울특별시 강남구 양재천로 363,,37.49127879,127.0621966,서울특별시 강남구청,수서경찰서,Y,3,8.8,21-06-28
초등학교,양전초등학교,서울특별시 강남구 개포로 513,,37.49028366,127.069478,서울특별시 강남구청,수서경찰서,Y,4,15,21-06-28
초등학교,세명초등학교,서울특별시 강남구 자곡로 55,,37.468857,127.0910762,서울특별시 강남구청,수서경찰서,Y,2,25,21-06-28
초등학교,율현초등학교,서울특별시 강남구 밤고개로21길 15,,37.474559,127.108267,서울특별시 강남구청,수서경찰서,Y,1,8,21-06-28
초등학교,자곡초등학교,서울특별시 강남구 자곡로 150,,37.472191,127.0996009,서울특별시 강남구청,수서경찰서,Y,2,25,21-06-28
특수학교,밀알학교,서울특별시 강남구 일원로 90,,37.48578132,127.0820739,서울특별시 강남구청,수서경찰서,Y,3,14.4,21-06-28
특수학교,정애학교,서울특별시 강남구 봉은사로81길 16,,37.514363,127.054425,서울특별시 강남구청,강남경찰서,Y,2,6,21-06-28
특수학교,서울아카데미(외국인),서울특별시 강남구 삼성로64길 16,,37.49996119,127.061603,서울특별시 강남구청,수서경찰서,Y,2,19.7,21-06-28
어린이집,연화어린이집,서울특별시 강남구 학동로 43길 17,,37.517216,127.0372042,서울특별시 강남구청,강남경찰서,Y,1,6,21-06-28
어린이집,한별어린이집,서울특별시 강남구 봉은사로82길 23,,37.511759,127.0555131,서울특별시 강남구청,강남경찰서,Y,1,6,21-06-28
어린이집,삼성어린이집,서울특별시 강남구 도곡로78길 22,,37.49663609,127.058851,서울특별시 강남구청,수서경찰서,Y,2,6,21-06-28
어린이집,오르다어린이집,서울특별시 강남구 봉은사로73길 3-4,,37.51279678,127.0505144,서울특별시 강남구청,강남경찰서,Y,2,10,21-06-28
어린이집,선릉삼성어린이집,서울특별시 강남구 선릉로100길 48,,37.506634,127.051164,서울특별시 강남구청,강남경찰서,Y,1,12,21-06-28
어린이집,논현어린이집,서울특별시 강남구 강남대로124길 65,,37.51102773,127.026898,서울특별시 강남구청,강남경찰서,Y,2,6,21-06-28
어린이집,준현어린이집,서울특별시 강남구 선릉로148길 48-6,,37.52262415,127.043338,서울특별시 강남구청,강남경찰서,Y,1,4,21-06-28
어린이집,자람어린이집,서울특별시 강남구 일원로5길 29,,37.491666,127.082926,서울특별시 강남구청,수서경찰서,Y,1,8,21-06-28
어린이집,목련어린이집,서울특별시 강남구 개포로 617-8,,37.494007,127.077734,서울특별시 강남구청,수서경찰서,Y,1,10,21-06-28
어린이집,대치어린이집,서울특별시 강남구 영동대로65길 11,,37.50185478,127.065542,서울특별시 강남구청,수서경찰서,Y,1,12,21-06-28
어린이집,한티어린이집,"서울특별시 강남구 영동대로57길 7, 대치문화복지회관 3층",,37.49995467,127.066938,서울특별시 강남구청,수서경찰서,Y,1,8,21-06-28
어린이집,킹스키즈어린이집,서울특별시 강남구 도곡로73길 31-1,,37.49983413,127.056227,서울특별시 강남구청,수서경찰서,Y,1,6,21-06-28
어린이집,선재어린이집,서울특별시 강남구 삼성로71길 31,,37.50147751,127.0563559,서울특별시 강남구청,수서경찰서,Y,1,6,21-06-28
어린이집,성아어린이집,서울특별시 강남구 논현로32길 16,,37.484042,127.043583,서울특별시 강남구청,수서경찰서,Y,1,6,21-06-28
어린이집,청수어린이집,서울특별시 강남구 압구정로79길 26,,37.525052,127.049284,서울특별시 강남구청,강남경찰서,Y,3,8,21-06-28
어린이집,튼튼영재어린이집,"서울특별시 강남구 학동로101길 26, 삼익상가3층",,37.52244507,127.0576206,서울특별시 강남구청,강남경찰서,Y,3,6,21-06-28
어린이집,강남구청어린이집,서울특별시 강남구 학동로 426,,37.51796636,127.0470611,서울특별시 강남구청,강남경찰서,Y,1,8,21-06-28
어린이집,구민회관어린이집,서울특별시 강남구 삼성로 154,,37.493887,127.0642704,서울특별시 강남구청,수서경찰서,Y,1,30,21-06-28
어린이집,신사어린이집,서울특별시 강남구 도산대로56길 14,,37.52212074,127.0401134,서울특별시 강남구청,강남경찰서,Y,1,6,21-06-28
어린이집,보미나어린이집,서울특별시 강남구 학동로20길 25,,37.51150308,127.0285346,서울특별시 강남구청,강남경찰서,Y,1,8,21-06-28
어린이집,청담어린이집,서울특별시 강남구 도산대로56길 14,,37.52212074,127.0401134,서울특별시 강남구청,강남경찰서,Y,1,6,21-06-28
어린이집,역삼어린이집,서울특별시 강남구 테헤란로22길 46,,37.497106,127.035679,서울특별시 강남구청,수서경찰서,Y,1,6,21-06-28
어린이집,선우어린이집,서울특별시 강남구 도곡로18길 9,,37.490733,127.0385091,서울특별시 강남구청,수서경찰서,Y,1,6,21-06-28
어린이집,수서어린이집,서울특별시 강남구 광평로 242,,37.486135,127.099054,서울특별시 강남구청,수서경찰서,Y,1,8,21-06-28
어린이집,일원어린이집,서울특별시 강남구 광평로3길 9,,37.483221,127.078254,서울특별시 강남구청,수서경찰서,Y,2,8,21-06-28
어린이집,압구정어린이집,서울특별시 강남구 언주로 157길 8,,37.523923,127.0322635,서울특별시 강남구청,강남경찰서,Y,1,6,21-06-28
어린이집,강남동산어린이집,서울특별시 강남구 개포로 257,,37.47953691,127.0501412,서울특별시 강남구청,수서경찰서,Y,1,6,21-06-28
어린이집,GKL행복어린이집,서울특별시 강남구 봉은사로68길 27,,37.51043221,127.051243,서울특별시 강남구청,강남경찰서,Y,1,12,21-06-28
어린이집,압구정아람어린이집,서울특별시 강남구 압구정로 311,,37.52934822,127.0356146,서울특별시 강남구청,강남경찰서,Y,3,30,21-06-28
어린이집,예지어린이집,서울특별시 강남구 논현로2길 40,,37.47352236,127.0535087,서울특별시 강남구청,수서경찰서,Y,1,6,21-06-28
어린이집,강남어린이집,서울특별시 강남구 개포로109길 9,,37.495751,127.075096,서울특별시 강남구청,수서경찰서,Y,1,20,21-06-28
어린이집,방죽어린이집,서울특별시 강남구 밤고개로24길 75,,37.4699202,127.104503,서울특별시 강남구청,수서경찰서,Y,1,8,21-06-28
어린이집,푸른어린이집,서울특별시 강남구 자곡로7길 8-1,,37.47356078,127.0998275,서울특별시 강남구청,수서경찰서,Y,2,8,21-06-28
어린이집,바롬어린이집,서울특별시 강남구 언주로164길 36,,37.525305,127.036309,서울특별시 강남구청,강남경찰서,Y,1,6,21-06-28
어린이집,역삼가애어린이집,서울특별시 강남구 도곡로37길 15,,37.494809,127.044725,서울특별시 강남구청,수서경찰서,Y,2,12,21-06-28
어린이집,아이뜰어린이집,서울특별시 강남구 개포로22길 39-11,,37.477164,127.050117,서울특별시 강남구청,수서경찰서,Y,1,8,21-06-28
어린이집,해맑은어린이집,서울특별시 강남구 개포로36길 14,,37.478521,127.0513054,서울특별시 강남구청,수서경찰서,Y,1,6,21-06-28
어린이집,대청어린이집,서울특별시 강남구 양재대로37길 19,,37.490853,127.083513,서울특별시 강남구청,수서경찰서,Y,1,6,21-06-28
어린이집,충현어린이집,서울특별시 강남구 테헤란로27길 40,,37.50532685,127.0376163,서울특별시 강남구청,수서경찰서,Y,2,12,21-06-28
어린이집,세곡햇빛어린이집,서울특별시 강남구 자곡로 260,,37.476549,127.111611,서울특별시 강남구청,수서경찰서,Y,13,8,21-06-28
어린이집,한울어린이집,서울특별시 강남구 삼성로51길 25,,37.49590698,127.0609998,서울특별시 강남구청,수서경찰서,Y,1,8,21-06-28
어린이집,미담어린이집,서울특별시 강남구 일원로 115,,37.48402087,127.0844599,서울특별시 강남구청,수서경찰서,Y,1,8,21-06-28
어린이집,아이앤어린이집,서울특별시 강남구 봉은사로68길 35-2,,37.51002831,127.0518427,서울특별시 강남구청,강남경찰서,Y,1,8,21-06-28
어린이집,보람어린이집,서울특별시 강남구 남부순환로397길 19,,37.49438501,127.06134,서울특별시 강남구청,수서경찰서,Y,10,14,21-06-28
어린이집,대치동학원가,서울특별시 강남구 도곡로 407-2,,37.49708841,127.0548958,서울특별시 강남구청,수서경찰서,Y,4,36,21-06-28
초등학교,신상도초등학교,서울특별시 동작구 장승배기로 14,서울특별시 동작구 상도2동 산65,37.50034631,126.9446175,서울특별시 동작구청,동작경찰서,Y,4,4~17,21-03-24
초등학교,강남초등학교,서울특별시 동작구 강남초등길 15,서울특별시 동작구 상도1동 501,37.50615977,126.953358,서울특별시 동작구청,동작경찰서,Y,5,4~10,21-03-24
초등학교,남사초등학교,서울특별시 동작구 동작대로13길 22,서울특별시 동작구 사당1동 1011-1,37.4819443,126.9782332,서울특별시 동작구청,동작경찰서,Y,2,3~6,21-03-24
초등학교,남성초등학교,서울특별시 동작구 사당로23길 57-14,서울특별시 동작구 사당3동 산24,37.48459633,126.9754872,서울특별시 동작구청,동작경찰서,Y,3,4~15,21-03-24
초등학교,노량진초등학교,서울특별시 동작구 장승배기로 160,서울특별시 동작구 노량진1동 238,37.51175119,126.9408222,서울특별시 동작구청,동작경찰서,Y,4,4~24,21-03-24
초등학교,대림초등학교,서울특별시 동작구 대방동1길 22,서울특별시 동작구 대방동391-62,37.50061292,126.9248853,서울특별시 동작구청,동작경찰서,Y,1,4~24,21-03-24
초등학교,동작초등학교,서울특별시 동작구 동작대로29길 214,서울특별시 동작구 동작동 산9-1,37.49411478,126.9765109,서울특별시 동작구청,동작경찰서,Y,3,3~11,21-03-24
초등학교,문창초등학교,서울특별시 동작구 신대방2길 14,서울특별시 동작구 신대방1동 640,37.48898312,126.9148425,서울특별시 동작구청,동작경찰서,Y,2,4~5,21-03-24
초등학교,보라매초등학교,서울특별시 동작구 여의대방로16길 30,서울특별시 동작구 신대방1동 485-1,37.49585333,126.9161464,서울특별시 동작구청,동작경찰서,Y,2,5~12,21-03-24
초등학교,본동초등학교,서울특별시 동작구 노량진로26길 16-40,서울특별시 동작구 본동 133,37.50992616,126.9538533,서울특별시 동작구청,동작경찰서,Y,2,4~9,21-03-24
초등학교,삼일초등학교,서울특별시 동작구 사당로23나길 27,서울특별시 동작구 사당3동 산18-34,37.4882193,126.975172,서울특별시 동작구청,동작경찰서,Y,2,4~12,21-03-24
초등학교,상도초등학교,서울특별시 동작구 성대로21길 62,서울특별시 동작구 상도4동 238-2,37.50034624,126.9372712,서울특별시 동작구청,동작경찰서,Y,3,6~7,21-03-24
초등학교,신길초등학교,서울특별시 동작구 알마타길 16,서울특별시 동작구 대방동 산28,37.51087166,126.9267292,서울특별시 동작구청,동작경찰서,Y,5,6~13,21-03-24
초등학교,신남성초등학교,서울특별시 동작구 사당로 146,서울특별시 동작구 사당5동 418-1,37.48815083,126.9648709,서울특별시 동작구청,동작경찰서,Y,3,5~7,21-03-24
초등학교,영본초등학교,서울특별시 동작구 만양로12가길 69,서울특별시 동작구 본동 441-11,37.51129715,126.9486722,서울특별시 동작구청,동작경찰서,Y,3,3~15,21-03-24
초등학교,영화초등학교,서울특별시 동작구 등용로8길 3,서울특별시 동작구 대방동 44-3,37.50890703,126.9329751,서울특별시 동작구청,동작경찰서,Y,2,12~18,21-03-24
초등학교,은로초등학교,서울특별시 동작구 서달로 115,서울특별시 동작구 흑석1동 245,37.5031946,126.9599999,서울특별시 동작구청,동작경찰서,Y,2,5~11,21-03-24
초등학교,중대부속초등학교,서울특별시 동작구 서달로 135,서울특별시 동작구 흑석1동 233,37.5054521,126.9596784,서울특별시 동작구청,동작경찰서,Y,3,4~15,21-03-24
초등학교,행림초등학교,서울특별시 동작구 솔밭로 61-6,서울특별시 동작구 사당5동 236-4,37.48221173,126.9660323,서울특별시 동작구청,동작경찰서,Y,2,3~16,21-03-24
초등학교,흑석초등학교,서울특별시 동작구 현충로 87,서울특별시 동작구 흑석동 7-1,37.5082938,126.9651329,서울특별시 동작구청,동작경찰서,Y,6,10~28,21-03-24
초등학교,상현초등학교,서울특별시 동작구 상도로58길 21,서울특별시 동작구 상도동 134-600,37.49487529,126.9526684,서울특별시 동작구청,동작경찰서,Y,2,6,21-03-24
유치원,동그라미유치원,서울특별시 동작구 사당로28길 34,서울특별시 동작구 상도4동 212-128,37.4816149,126.9793688,서울특별시 동작구청,동작경찰서,Y,1,3~6,21-03-24
유치원,동아유치원,서울특별시 동작구 만양로3길 48,서울특별시 동작구 노량진동 325-1,37.50824932,126.9433211,서울특별시 동작구청,동작경찰서,Y,1,15,21-03-24
유치원,명수유치원,서울특별시 동작구 흑석로13길 3,서울특별시 동작구 흑석동 186,37.50872103,126.9604526,서울특별시 동작구청,동작경찰서,Y,1,6~8,21-03-24
유치원,벧엘유치원,서울특별시 동작구 장승배기로20길 46-3,서울특별시 동작구 노량진1동 225-57,37.50934081,126.9422402,서울특별시 동작구청,동작경찰서,Y,3,4~5,21-03-24
유치원,사랑유치원,서울특별시 동작구 여의대방로24나길 6,서울특별시 동작구 대방동 414-3,37.49840123,126.9211621,서울특별시 동작구청,동작경찰서,Y,1,12~17,21-03-24
유치원,상아유치원,서울특별시 동작구 양녕로26길 15,서울특별시 동작구 상도4동 211-1,37.4975519,126.9446241,서울특별시 동작구청,동작경찰서,Y,1,7~9,21-03-24
유치원,승혜유치원,서울특별시 동작구 성대로21길 15,서울특별시 동작구 상도4동 244-337,37.4986394,126.9370792,서울특별시 동작구청,동작경찰서,Y,1,4,21-03-24
유치원,은혜유치원,서울특별시 동작구 성대로6가길 29,서울특별시 동작구 상도3동 256-175,37.4977312,126.9332022,서울특별시 동작구청,동작경찰서,Y,1,5~8,21-03-24
유치원,양문유치원,서울특별시 동작구 시흥대로 644-1,서울특별시 동작구 신대방1동 607-32,37.4891543,126.9073747,서울특별시 동작구청,동작경찰서,Y,1,4~7,21-03-24
유치원,열림유치원,서울특별시 동작구 여의대방로44길 49,서울특별시 동작구 대방동 503-1,37.5089258,126.929207,서울특별시 동작구청,동작경찰서,Y,1,19,21-03-24
유치원,요요유치원,서울특별시 동작구 여의대방로 28,서울특별시 동작구 신대방1동 707,37.49527344,126.9116916,서울특별시 동작구청,동작경찰서,Y,1,5,21-03-24
유치원,중대부속유치원,서울특별시 동작구 흑석로 47,서울특별시 동작구 흑석1동 211-32,37.5064905,126.9555972,서울특별시 동작구청,동작경찰서,Y,1,13,21-03-24
유치원,강남유치원,서울특별시 동작구 상도로41가길 13,서울특별시 동작구 상도1동 660-2,37.50349488,126.9496786,서울특별시 동작구청,동작경찰서,Y,1,9,21-03-24
유치원,상도유치원,서울특별시 동작구 상도로47길 51,서울특별시 동작구 상도1동 415,37.50144862,126.9516555,서울특별시 동작구청,동작경찰서,Y,1,8,21-03-24
유치원,행복유치원,서울특별시 동작구 양녕로23길 25,서울특별시 동작구 상도동 산 65-225,37.4956159,126.941139,서울특별시 동작구청,동작경찰서,Y,1,7~9,21-03-24
유치원,신남성초교 병설유치원,서울특별시 동작구 사당로 146,서울특별시 동작구 사당5동 418-1,37.48815083,126.9648709,서울특별시 동작구청,동작경찰서,Y,1,5~7,21-03-24
유치원,은로초등학교 병설유치원,서울특별시 동작구 서달로 115,서울특별시 동작구 흑석1동 245,37.5031946,126.9599999,서울특별시 동작구청,동작경찰서,Y,1,5~11,21-03-24
유치원,샛별유치원,서울특별시 동작구 상도로50길 36-1,서울특별시 동작구 상도동 134-160,37.49804586,126.9502826,서울특별시 동작구청,동작경찰서,Y,1,7,21-03-24
유치원,하랑숲유치원,서울특별시 동작구 동작대로41길 7,서울특별시 동작구 동작동 102-60,37.4960102,126.9817887,서울특별시 동작구청,동작경찰서,Y,1,6,21-03-24
유치원,시현유치원,서울특별시 동작구 만양로8길 50,서울특별시 동작구 노량진동 323,37.51030525,126.9468677,서울특별시 동작구청,동작경찰서,Y,1,5,21-03-24
어린이집,양지어린이집,서울특별시 동작구 사당로23길 137,서울특별시 동작구 사당동 169-8,37.48858884,126.9720666,서울특별시 동작구청,동작경찰서,Y,1,12,21-03-24
어린이집,연꽃어린이집,서울특별시 동작구 국사봉1길 235-1,서울특별시 동작구 상도3동 산77-1,37.49326005,126.9360196,서울특별시 동작구청,동작경찰서,Y,1,7~8,21-03-24
어린이집,예담어린이집,서울특별시 동작구 매봉로 43,서울특별시 동작구 상도동 511,37.5069456,126.9512421,서울특별시 동작구청,동작경찰서,Y,1,8~14,21-03-24
어린이집,꿈나무어린이집,서울특별시 동작구 여의대방로36길 11,서울특별시 동작구 대방동 386-2,37.50461575,126.9229536,서울특별시 동작구청,동작경찰서,Y,1,13,21-03-24
어린이집,우리어린이집,서울특별시 동작구 솔밭로74-1,서울특별시 동작구 사당5동 235-61,37.48301937,126.9672688,서울특별시 동작구청,동작경찰서,Y,1,6~7,21-03-24
어린이집,참사랑어린이집,서울특별시 동작구 동작대로17길 37,서울특별시 동작구 사당1동 1012-23,37.48280553,126.9775139,서울특별시 동작구청,동작경찰서,Y,1,6,21-03-24
어린이집,상도어린이집,서울특별시 동작구 양녕로36길 15,서울특별시 동작구 상도1동 159-403,37.5024623,126.9464077,서울특별시 동작구청,동작경찰서,Y,1,3,21-03-24
어린이집,다문화어린이집,서울특별시 동작구 동작대로17길 28,서울특별시 동작구 사당1동 1011-1,37.4830324,126.9787548,서울특별시 동작구청,동작경찰서,Y,1,3~6,21-03-24
어린이집,노벨어린이집,서울특별시 동작구 양녕로 26길 27,서울특별시 동작구 상도4동 211-1,37.49739084,126.9442578,서울특별시 동작구청,동작경찰서,Y,1,7~9,21-03-24
어린이집,무지개어린이집,서울특별시 동작구 성대로6가길 29,서울특별시 동작구 상도3동 256-175,37.4977312,126.9332022,서울특별시 동작구청,동작경찰서,Y,1,5~8,21-03-24
어린이집,영재어린이집,서울특별시 동작구 여의대방로36길 105,서울특별시 동작구 대방동 44-3,37.50885234,126.9318509,서울특별시 동작구청,동작경찰서,Y,1,12~18,21-03-24
어린이집,문화어린이집,서울특별시 동작구 사당로13길 24,서울특별시 동작구 사당동 1131-4,37.4851433,126.9724116,서울특별시 동작구청,동작경찰서,Y,1,5~8,21-03-24
어린이집,큰별어린이집,서울특별시 동작구 흑석한강로 28,서울특별시 동작구 흑석동 336-1,37.50463572,126.965112,서울특별시 동작구청,동작경찰서,Y,1,21~23,21-03-24
어린이집,성대어린이집,서울특별시 동작구 성대로10길 27,서울특별시 동작구 상도동 271,37.49682045,126.935311,서울특별시 동작구청,동작경찰서,Y,1,4~7,21-03-24
특수학교,삼성특수학교,서울특별시 동작구 양녕로30길 19-4,서울특별시 동작구 상도4동 212-128,37.49919802,126.9466724,서울특별시 동작구청,동작경찰서,Y,1,7~20,21-03-24
유치원,행복한숲유치원,서울특별시 동작구 만양로26,서울특별시 동작구 상도동414,37.50763224,126.9495433,서울특별시 동작구청,동작경찰서,Y,1,6~7,21-03-24
어린이집,사당4동어린이집,서울특별시 동작구 사당로22나길 70,서울특별시 동작구 사당동316-56,37.480666,126.973077,서울특별시 동작구청,동작경찰서,Y,1,6~7,21-03-24
어린이집,도레미어린이집,서울특별시 동작구 흑석로13길 25,서울특별시 동작구 흑석동 173-51,37.50992802,126.9591494,서울특별시 동작구청,동작경찰서,Y,1,8~10,21-03-24
어린이집,흑석어린이집,서울특별시 동작구 서달로 61,서울특별시 동작구 흑석동 257-9,37.49960807,126.9601642,서울특별시 동작구청,동작경찰서,Y,1,8~10,21-03-24
학원,참음악학원,서울특별시 동작구 성대로 69,서울특별시 동작구 260-14,37.49800113,126.934673,서울특별시 동작구청,동작경찰서,Y,1,6~7,21-03-24
학원,튼튼영어마스터 학원,서울특별시 동작구 사당로16길 90,서울특별시 동작구 300-3,37.479934,126.971286,서울특별시 동작구청,동작경찰서,Y,1,6~7,21-03-24
학원,동작시사어학원,서울특별시 동작구 동작대로29길 77,서울특별시 동작구 사당동 120,37.488664,126.9778247,서울특별시 동작구청,동작경찰서,Y,1,6~7,21-03-24
학원,미래연미술학원,서울특별시 동작구 사당로16길 82,서울특별시 동작구 사당동 300-2,37.480221,126.971485,서울특별시 동작구청,동작경찰서,Y,1,6~7,21-03-24
학원,대방유투엠학원,서울특별시 동작구 대방동 83,서울특별시 동작구 대방동 381-48,37.505128,126.924346,서울특별시 동작구청,동작경찰서,Y,1,6~7,21-03-24
어린이집,남태령어린이집,서울특별시 서초구 전원말길 6,서울특별시 서초구 방배동 2877,37.46589698,126.9887801,서울시 서초구,방배경찰서,N,1,1,20-07-01
어린이집,반포1동어린이집,서울특별시 서초구 신반포로 318,서울특별시 서초구 반포동 703-1,37.5099591,127.0184672,서울시 서초구,서초경찰서,Y,1,3,20-07-01
어린이집,반포서래어린이집,서울특별시 서초구 사평대로28길 70,서울특별시 서초구 반포동 74-7,37.4974379,127.0003038,서울시 서초구,방배경찰서,Y,1,3,20-07-01
어린이집,반포어린이집,서울특별시 서초구 사평대로20길 54,서울특별시 서초구 반포동 107-87,37.49702913,126.9967752,서울시 서초구,방배경찰서,Y,1,1,20-07-01
어린이집,사랑의어린이집,서울특별시 서초구 신반포로33길 22,서울특별시 서초구 잠원동 60-5,37.50995268,127.0109679,서울시 서초구,서초경찰서,Y,1,1,20-07-01
어린이집,샤이닝키즈어린이집,서울특별시 서초구 서초대로74길 30,서울특별시 서초구 서초동 1326-17,37.49509077,127.026805,서울시 서초구,서초경찰서,Y,1,1,20-07-01
어린이집,서초구청직장어린이집,서울특별시 서초구 남부순환로347길 46,서울특별시 서초구 서초동 1360-26,37.48642194,127.0314197,서울시 서초구,서초경찰서,Y,1,3,20-07-01
어린이집,서초남서울어린이집,서울특별시 서초구 반포대로 310-5,서울특별시 서초구 잠원동 76-9,37.5068308,127.0008832,서울시 서초구,서초경찰서,N,1,1,20-07-01
어린이집,서초성모어린이집,서울특별시 서초구 고무래로8길 21,서울특별시 서초구 반포동 54-9,37.5010268,127.0095516,서울시 서초구,방배경찰서,Y,1,1,20-07-01
어린이집,서초어린이집,서울특별시 서초구 남부순환로 2271-1,서울특별시 서초구 방배동 1027-6,37.4746298,127.0002477,서울시 서초구,방배경찰서,Y,1,1,20-07-01
어린이집,서초연꽃어린이집,서울특별시 서초구 사임당로19길 51,서울특별시 서초구 서초동 1642-15,37.4917669,127.0180788,서울시 서초구,서초경찰서,Y,1,2,20-07-01
어린이집,서초장미어린이집,서울특별시 서초구 남부순환로 2543-5,서울특별시 서초구 서초동 1353-3,37.4841569,127.0284114,서울시 서초구,서초경찰서,Y,1,1,20-07-01
어린이집,서초중앙어린이집,서울특별시 서초구 남부순환로289길 35,서울특별시 서초구 방배동 530-55,37.4767682,126.9890543,서울시 서초구,방배경찰서,Y,1,1,20-07-01
어린이집,아람마주이야기어린이집,서울특별시 서초구 동광로12길 12,서울특별시 서초구 방배동 822-29,37.49080064,126.9865099,서울시 서초구,방배경찰서,Y,1,1,20-07-01
어린이집,푸르니서초어린이집,서울특별시 서초구 효령로67길 4,서울특별시 서초구 서초동 1607-5,37.48744005,127.0238172,서울시 서초구,서초경찰서,Y,1,1,20-07-01
어린이집,하나푸르니어린이집,서울특별시 서초구 서초중앙로33길 10,서울특별시 서초구 반포동 53-6,37.5013463,127.0107482,서울시 서초구,방배경찰서,Y,1,1,20-07-01
유치원,구룡유치원,서울특별시 서초구 논현로5길 31-11,서울특별시 서초구 양재동 399-1,37.4711033,127.0491705,서울시 서초구,서초경찰서,Y,1,1,20-07-01
유치원,반포병설유치원,서울특별시 서초구 신반포로 55-4,서울특별시 서초구 반포본동 937,37.50248537,126.9917397,서울시 서초구,방배경찰서,Y,1,1,20-07-01
유치원,반포성모유치원,서울특별시 서초구 신반포로15길 18,서울특별시 서초구 반포동 4-1,37.5049543,126.9946301,서울시 서초구,방배경찰서,Y,1,1,20-07-01
유치원,방배병설유치원,서울특별시 서초구 방배중앙로13길 26,서울특별시 서초구 방배동 861-1,37.48676419,126.9871372,서울시 서초구,방배경찰서,Y,1,1,20-07-01
유치원,새성민유치원,서울특별시 서초구 효령로 110,서울특별시 서초구 방배동 981-2,37.4806567,126.9961191,서울시 서초구,방배경찰서,Y,1,1,20-07-01
유치원,새순유치원,서울특별시 서초구 서초대로15길 57,서울특별시 서초구 방배동 831-12,37.48906371,126.9885796,서울시 서초구,방배경찰서,Y,1,1,20-07-01
유치원,서래병설유치원,서울특별시 서초구 방배로 260,서울특별시 서초구 방배본동 771,37.49640526,126.9901572,서울시 서초구,방배경찰서,Y,1,1,20-07-01
유치원,서울청계숲유치원,서울특별시 서초구 청계산로11길 14,서울특별시 서초구 신원동 247,37.447737,127.0577441,서울시 서초구,서초경찰서,Y,1,1,20-07-01
유치원,서초유치원,서울특별시 서초구 양재대로2길 100-64,서울특별시 서초구 우면동 769,37.4560854,127.0162166,서울시 서초구,서초경찰서,Y,1,1,20-07-01
유치원,석문유치원,서울특별시 서초구 서초대로64길 73,서울특별시 서초구 서초동 1634-1,37.49236352,127.0219462,서울시 서초구,서초경찰서,Y,1,2,20-07-01
유치원,양재천사유치원,서울특별시 서초구 바우뫼로 89,서울특별시 서초구 양재동 154-2,37.47435569,127.0311795,서울시 서초구,서초경찰서,Y,1,1,20-07-01
유치원,여나유치원,서울특별시 서초구 서초중앙로 200,서울특별시 서초구 서초동 1685,37.50042675,127.0154753,서울시 서초구,서초경찰서,Y,1,1,20-07-01
유치원,영생유치원,서울특별시 서초구 신반포로19길 30,서울특별시 서초구 반포2동 4-10,37.5050048,126.995664,서울시 서초구,방배경찰서,Y,1,1,20-07-01
유치원,원명병설유치원,서울특별시 서초구 고무래로 90-6,서울특별시 서초구 서초동 1685-1,37.50077618,127.0167058,서울시 서초구,서초경찰서,Y,1,1,20-07-01
유치원,하나유치원,서울특별시 서초구 잠원로8길 13,서울특별시 서초구 잠원동 56-3,37.5152074,127.0102178,서울시 서초구,서초경찰서,Y,1,1,20-07-01
유치원,한신유치원,서울특별시 서초구 잠원로3길 31,서울특별시 서초구 잠원동 70-3,37.50904489,127.004773,서울시 서초구,서초경찰서,Y,1,1,20-07-01
초등학교,계성초등학교,서울특별시 서초구 신반포로19길 23,서울특별시 서초구 반포동 6-1,37.50491473,126.9968242,서울시 서초구,방배경찰서,Y,1,1,20-07-01
초등학교,교대부속초등학교,서울특별시 서초구 서초중앙로 96,서울특별시 서초구 서초동 1650,37.49084333,127.0176896,서울시 서초구,서초경찰서,Y,1,3,20-07-01
초등학교,매헌초등학교,서울특별시 서초구 언남길 8,서울특별시 서초구 양재동 311-1,37.47126365,127.0420771,서울시 서초구,서초경찰서,Y,1,3,20-07-01
초등학교,반원초등학교,서울특별시 서초구 잠원로3길 40,서울특별시 서초구 잠원동 72-3,37.5082124,127.0036319,서울시 서초구,서초경찰서,Y,1,4,20-07-01
초등학교,반포초등학교,서울특별시 서초구 신반포로 55-4,서울특별시 서초구 반포본동 937,37.50248537,126.9917397,서울시 서초구,방배경찰서,Y,1,1,20-07-01
초등학교,방배초등학교,서울특별시 서초구 방배중앙로13길 26,서울특별시 서초구 방배동 861-1,37.48676419,126.9871372,서울시 서초구,방배경찰서,Y,1,6,20-07-01
초등학교,방일초등학교,서울특별시 서초구 방배로18길 52,서울특별시 서초구 방배동 167-4,37.48520434,126.9988512,서울시 서초구,방배경찰서,Y,1,2,20-07-01
초등학교,방현초등학교,서울특별시 서초구 효령로4길 58,서울특별시 서초구 방배동 산81-1,37.47650379,126.9900738,서울시 서초구,방배경찰서,Y,1,4,20-07-01
초등학교,서래초등학교,서울특별시 서초구 방배로 260,서울특별시 서초구 방배본동 771,37.49640526,126.9901572,서울시 서초구,방배경찰서,Y,1,4,20-07-01
초등학교,서원초등학교,서울특별시 서초구 고무래로 63,서울특별시 서초구 반포동 30-8,37.50243791,127.0146207,서울시 서초구,서초경찰서,Y,1,2,20-07-01
초등학교,서이초등학교,서울특별시 서초구 서운로 35,서울특별시 서초구 서초동 1334-2,37.49156629,127.0256187,서울시 서초구,서초경찰서,Y,1,1,20-07-01
초등학교,서일초등학교,서울특별시 서초구 남부순환로339길 38,서울특별시 서초구 서초동 1436-8,37.48529597,127.0221612,서울시 서초구,서초경찰서,Y,1,5,20-07-01
초등학교,서초초등학교,서울특별시 서초구 서운로 178,서울특별시 서초구 서초동 1310-6,37.49904841,127.024893,서울시 서초구,서초경찰서,Y,1,2,20-07-01
초등학교,신동초등학교,서울특별시 서초구 나루터로 15,서울특별시 서초구 잠원동 54-5,37.51712824,127.0113885,서울시 서초구,서초경찰서,Y,1,2,20-07-01
초등학교,신중초등학교,서울특별시 서초구 남부순환로317길 15,서울특별시 서초구 서초동 1466-5,37.4799348,127.0102613,서울시 서초구,서초경찰서,Y,1,4,20-07-01
초등학교,양재초등학교,서울특별시 서초구 바우뫼로18길 14,서울특별시 서초구 양재동 101,37.47416448,127.0318939,서울시 서초구,서초경찰서,Y,1,2,20-07-01
초등학교,언남초등학교,서울특별시 서초구 헌릉로8길 42,서울특별시 서초구 내곡동 122,37.45389784,127.0618853,서울시 서초구,서초경찰서,Y,1,2,20-07-01
초등학교,우면초등학교,서울특별시 서초구 태봉로 59,서울특별시 서초구 우면동 690,37.46470939,127.0237457,서울시 서초구,서초경찰서,Y,1,1,20-07-01
초등학교,우솔초등학교,서울특별시 서초구 양재대로2길 74,서울특별시 서초구 우면동 774,37.45652907,127.0189383,서울시 서초구,서초경찰서,Y,1,2,20-07-01
초등학교,우암초등학교,서울특별시 서초구 바우뫼로7길 38,서울특별시 서초구 우면동 58,37.47229591,127.023722,서울시 서초구,서초경찰서,Y,1,2,20-07-01
초등학교,원명초등학교,서울특별시 서초구 고무래로 90-6,서울특별시 서초구 서초동 1685-1,37.50077618,127.0167058,서울시 서초구,서초경찰서,Y,1,1,20-07-01
초등학교,원촌초등학교,서울특별시 서초구 사평대로45길 26,서울특별시 서초구 반포동 21,37.5061857,127.0125676,서울시 서초구,서초경찰서,Y,1,1,20-07-01
초등학교,이수초등학교,서울특별시 서초구 방배천로4길 23,서울특별시 서초구 방배동 468-6,37.4783196,126.9844162,서울시 서초구,방배경찰서,Y,1,3,20-07-01
초등학교,잠원초등학교,서울특별시 서초구 신반포로16길 15-25,서울특별시 서초구 반포동 17,37.50185855,126.998053,서울시 서초구,방배경찰서,Y,1,1,20-07-01
특수학교,다니엘학교,서울특별시 서초구 헌릉로468길 21-16,서울특별시 서초구 내곡동 1-1328,37.46016345,127.092318,서울시 서초구,서초경찰서,Y,1,1,20-07-01
어린이집,텀블랜드어린이집,서울특별시 서초구 바우뫼로37길 9,서울특별시 서초구 양재동 5-16,37.47924022,127.039679,서울시 서초구,서초경찰서,N,0,6,20-07-01
어린이집,양재별하어린이집,서울특별시 서초구 논현로5길 15-5,서울특별시 서초구 양재동 401-12,37.471941,127.0493972,서울시 서초구,서초경찰서,N,0,6,20-07-01
어린이집,니꼴라오어린이집,서울특별시 서초구 논현로5길 28,서울특별시 서초구 양재동 396-2,37.47206501,127.048168,서울시 서초구,서초경찰서,N,0,6,20-07-01
어린이집,양재목련어린이집,서울특별시 서초구 언남16길 37,서울특별시 서초구 양재동 300-11,37.473446,127.0464951,서울시 서초구,서초경찰서,N,0,6,20-07-01
어린이집,방배4동어린이집,서울특별시 서초구 서초대로19길16,서울특별시 서초구 방배동 873-4,37.48782776,126.9912619,서울시 서초구,방배경찰서,N,0,5,20-07-01
어린이집,서초1동하은어린이집,서울특별시 서초구 서초대로58길 35-6,서울특별시 서초구 서초동 1668-15,37.493179,127.018267,서울시 서초구,서초경찰서,N,0,4,20-07-01
어린이집,도구머리어린이집,서울특별시 서초구 청두곶2길 33,서울특별시 서초구 방배동 산75-3,37.47862269,126.9871929,서울시 서초구,방배경찰서,N,0,6,20-07-01
어린이집,내곡연두어린이집,서울특별시 서초구 헌릉로 226,서울특별시 서초구 내곡동 184-1,37.4549486,127.0649242,서울시 서초구,서초경찰서,N,0,6,20-07-01
어린이집,잠원꿈밭어린이집,서울특별시 서초구 강남대로95길 48-58,서울특별시 서초구 잠원동 24-11,37.513722,127.016578,서울시 서초구,서초경찰서,N,0,6,20-07-01
어린이집,방배본동 행복한어린이집,서울특별시 서초구 동광로11길 86,서울특별시 서초구 방배동 768-5,37.495021,126.985489,서울시 서초구,방배경찰서,N,0,6,20-07-01
어린이집,방배어린이집,서울특별시 서초구 방배로19길 36-8,서울특별시 서초구 방배동 321-10,37.48509242,126.993052,서울시 서초구,방배경찰서,N,0,6,20-07-01
어린이집,서초구립예아어린이집,서울특별시 서초구 방배천로18길 36-8,서울특별시 서초구 방배동 436-5,37.482379,126.984571,서울시 서초구,방배경찰서,N,0,6,20-07-01
어린이집,서초구립방배열린어린이집,서울특별시 서초구 방배로 173,서울특별시 서초구 방배동 852-14,37.48900635,126.9922432,서울시 서초구,방배경찰서,N,0,6,20-07-01
어린이집,현대양재어린이집,서울특별시 서초구 염곡말길 17-6,서울특별시 서초구 염곡동 106-1,37.46233242,127.0521308,서울시 서초구,서초경찰서,N,0,6,20-07-01
어린이집,반포복지관어린이집,서울특별시 서초구 사평대로55길 90,서울특별시 서초구 반포동 724-12,37.507877,127.021231,서울시 서초구,서초경찰서,N,0,6,20-07-01
어린이집,누리아미어린이집,서울특별시 서초구 서운로26길 3,서울특별시 서초구 서초동 1302-6,37.50271423,127.0222116,서울시 서초구,서초경찰서,N,0,6,20-07-01
